[
    {
      "id": 1,
      "userId": 101,
      "name": "Allen",
      "location": "93430 Cummerata Way",
      "address": "Marilou17@yahoo.com"
    },
    {
      "id": 2,
      "userId": 102,
      "name": "Kris",
      "location": "9995 Eleanore Plain",
      "address": "Chad93@yahoo.com"
    },
    {
      "id": 3,
      "userId": 103,
      "name": "Will",
      "location": "13709 Murazik Terrace",
      "address": "Tanner.Crona15@gmail.com"
    },
    {
      "id": 4,
      "userId": 104,
      "name": "Tomasa",
      "location": "304 Mylene Estate",
      "address": "Ottis_Williamson75@hotmail.com"
    },
    {
      "id": 5,
      "userId": 105,
      "name": "Sheila",
      "location": "754 Dare Wall",
      "address": "Randal.Walter86@yahoo.com"
    },
    {
      "id": 6,
      "userId": 106,
      "name": "Jessika",
      "location": "7811 Wiegand Trafficway",
      "address": "Clovis.Zulauf@gmail.com"
    },
    {
      "id": 7,
      "userId": 107,
      "name": "Sonny",
      "location": "512 Anne Landing",
      "address": "Lizzie_Turcotte49@yahoo.com"
    },
    {
      "id": 8,
      "userId": 108,
      "name": "Gavin",
      "location": "624 Treutel Bypass",
      "address": "Violette_Fritsch@gmail.com"
    },
    {
      "id": 9,
      "userId": 109,
      "name": "Hyman",
      "location": "2064 Keebler Courts",
      "address": "Wade19@yahoo.com"
    },
    {
      "id": 10,
      "userId": 110,
      "name": "Alvena",
      "location": "38681 Claudie Burgs",
      "address": "Robb.Maggio34@hotmail.com"
    },
    {
      "id": 11,
      "userId": 111,
      "name": "Karelle",
      "location": "7411 Santina Pike",
      "address": "Lenore.Reinger@gmail.com"
    },
    {
      "id": 12,
      "userId": 112,
      "name": "Ruben",
      "location": "4606 Zack Route",
      "address": "Angelina_Parker4@gmail.com"
    },
    {
      "id": 13,
      "userId": 113,
      "name": "Odie",
      "location": "3390 Maxwell Gateway",
      "address": "Hosea.Howe2@gmail.com"
    },
    {
      "id": 14,
      "userId": 114,
      "name": "Garret",
      "location": "1380 Foster Manor",
      "address": "Adell17@gmail.com"
    },
    {
      "id": 15,
      "userId": 115,
      "name": "Maryse",
      "location": "484 Von Fort",
      "address": "Jon.Tremblay@yahoo.com"
    },
    {
      "id": 16,
      "userId": 116,
      "name": "Dereck",
      "location": "0860 Anderson Throughway",
      "address": "Aurore.Buckridge66@gmail.com"
    },
    {
      "id": 17,
      "userId": 117,
      "name": "Monty",
      "location": "43834 Hartmann Glens",
      "address": "Kathryn.Dicki@hotmail.com"
    },
    {
      "id": 18,
      "userId": 118,
      "name": "Hardy",
      "location": "40967 Sophia Island",
      "address": "Jarvis.Heller59@hotmail.com"
    },
    {
      "id": 19,
      "userId": 119,
      "name": "Hobart",
      "location": "844 Bertha Ranch",
      "address": "George_Nienow8@yahoo.com"
    },
    {
      "id": 20,
      "userId": 120,
      "name": "Candace",
      "location": "477 Flavie Ville",
      "address": "Aimee64@yahoo.com"
    },
    {
      "id": 21,
      "userId": 121,
      "name": "Pete",
      "location": "341 O'Kon Square",
      "address": "Julian.Barton@gmail.com"
    },
    {
      "id": 22,
      "userId": 122,
      "name": "Rahsaan",
      "location": "186 Schaefer Valleys",
      "address": "Destinee47@gmail.com"
    },
    {
      "id": 23,
      "userId": 123,
      "name": "Kamron",
      "location": "858 Taylor Underpass",
      "address": "Triston.Cummerata@gmail.com"
    },
    {
      "id": 24,
      "userId": 124,
      "name": "Donny",
      "location": "1999 Hansen Islands",
      "address": "Wayne56@hotmail.com"
    },
    {
      "id": 25,
      "userId": 125,
      "name": "Mellie",
      "location": "567 Howe Trafficway",
      "address": "Lilliana17@gmail.com"
    },
    {
      "id": 26,
      "userId": 126,
      "name": "Jessyca",
      "location": "46414 Legros Corner",
      "address": "Violette69@gmail.com"
    },
    {
      "id": 27,
      "userId": 127,
      "name": "Tristin",
      "location": "887 Carrie Brook",
      "address": "Watson17@gmail.com"
    },
    {
      "id": 28,
      "userId": 128,
      "name": "Edwina",
      "location": "309 Theo Villages",
      "address": "Brent8@hotmail.com"
    },
    {
      "id": 29,
      "userId": 129,
      "name": "Lori",
      "location": "7162 Felipe Crescent",
      "address": "Matteo93@yahoo.com"
    },
    {
      "id": 30,
      "userId": 130,
      "name": "Lucile",
      "location": "201 Collins Ville",
      "address": "Marquis49@yahoo.com"
    },
    {
      "id": 31,
      "userId": 131,
      "name": "Cornell",
      "location": "0034 Zoila Pass",
      "address": "Michelle.Schmitt@gmail.com"
    },
    {
      "id": 32,
      "userId": 132,
      "name": "Bo",
      "location": "32526 McDermott Course",
      "address": "Mikel69@hotmail.com"
    },
    {
      "id": 33,
      "userId": 133,
      "name": "Cade",
      "location": "829 Ericka Turnpike",
      "address": "Halie_Runte@gmail.com"
    },
    {
      "id": 34,
      "userId": 134,
      "name": "Oswaldo",
      "location": "2834 Prohaska Garden",
      "address": "Jayden23@hotmail.com"
    },
    {
      "id": 35,
      "userId": 135,
      "name": "Percy",
      "location": "8188 Kianna Tunnel",
      "address": "Brisa.Klein@yahoo.com"
    },
    {
      "id": 36,
      "userId": 136,
      "name": "Kiana",
      "location": "538 Adriel Road",
      "address": "Maria_Murphy@yahoo.com"
    },
    {
      "id": 37,
      "userId": 137,
      "name": "Rolando",
      "location": "64424 Paucek Grove",
      "address": "Gordon56@gmail.com"
    },
    {
      "id": 38,
      "userId": 138,
      "name": "Letitia",
      "location": "9451 Ernest Hill",
      "address": "Jamil45@hotmail.com"
    },
    {
      "id": 39,
      "userId": 139,
      "name": "Jerome",
      "location": "28021 Palma Ridges",
      "address": "Kianna.Labadie66@hotmail.com"
    },
    {
      "id": 40,
      "userId": 140,
      "name": "Bertrand",
      "location": "113 Vallie Alley",
      "address": "Gonzalo37@hotmail.com"
    },
    {
      "id": 41,
      "userId": 141,
      "name": "Ila",
      "location": "170 Miller Points",
      "address": "Ayden.Rodriguez56@yahoo.com"
    },
    {
      "id": 42,
      "userId": 142,
      "name": "Josue",
      "location": "402 Klocko River",
      "address": "Tyrell.Will@yahoo.com"
    },
    {
      "id": 43,
      "userId": 143,
      "name": "Jane",
      "location": "3092 O'Hara Tunnel",
      "address": "Lenora_Cummerata@yahoo.com"
    },
    {
      "id": 44,
      "userId": 144,
      "name": "Mertie",
      "location": "62332 Koch Underpass",
      "address": "Rachelle90@hotmail.com"
    },
    {
      "id": 45,
      "userId": 145,
      "name": "Layne",
      "location": "080 Ellis Meadow",
      "address": "Bonnie_Schuster@gmail.com"
    },
    {
      "id": 46,
      "userId": 146,
      "name": "Aurelia",
      "location": "77650 Durgan Way",
      "address": "Kaya_Bernhard19@yahoo.com"
    },
    {
      "id": 47,
      "userId": 147,
      "name": "Gabe",
      "location": "91430 Vidal Groves",
      "address": "Ara2@gmail.com"
    },
    {
      "id": 48,
      "userId": 148,
      "name": "Jason",
      "location": "734 Windler Landing",
      "address": "Priscilla.Oberbrunner43@gmail.com"
    },
    {
      "id": 49,
      "userId": 149,
      "name": "Dante",
      "location": "118 Derick Forges",
      "address": "Lucas.Crist89@yahoo.com"
    },
    {
      "id": 50,
      "userId": 150,
      "name": "Floyd",
      "location": "97155 Glenda Grove",
      "address": "Zion_Kirlin69@hotmail.com"
    }
  ]